[
  {
    "roadway": "I 95",
    "placename": "Palm Coast",
    "placename_ascii": "Palm Coast",
    "placename_en": "Palm Coast",
    "placetag": "city",
    "latitude": 29.5541432,
    "longitude": -81.2207673,
    "state/province": "Florida",
    "state/province-ascii": "Florida",
    "country": "United States"
  },
  {
    "roadway": "I 95",
    "placename": "Springfield",
    "placename_ascii": "Springfield",
    "placename_en": "Springfield",
    "placetag": "town",
    "latitude": 38.7791227,
    "longitude": -77.1861196,
    "state/province": "Virginia",
    "state/province-ascii": "Virginia",
    "country": "United States"
  },
  {
    "roadway": "I 95",
    "placename": "Arbutus",
    "placename_ascii": "Arbutus",
    "placename_en": "Arbutus",
    "placetag": "town",
    "latitude": 39.2474276,
    "longitude": -76.6936144,
    "state/province": "Maryland",
    "state/province-ascii": "Maryland",
    "country": "United States"
  },
  {
    "roadway": "I 95",
    "placename": "Florence Township",
    "placename_ascii": "Florence Township",
    "placename_en": "Florence Township",
    "placetag": "town",
    "latitude": 40.1027969,
    "longitude": -74.791527,
    "state/province": "New Jersey",
    "state/province-ascii": "New Jersey",
    "country": "United States"
  },
  {
    "roadway": "I 95",
    "placename": "Fairfield",
    "placename_ascii": "Fairfield",
    "placename_en": "Fairfield",
    "placetag": "town",
    "latitude": 41.1412078,
    "longitude": -73.2637258,
    "state/province": "Connecticut",
    "state/province-ascii": "Connecticut",
    "country": "United States"
  },
  {
    "roadway": "I 95",
    "placename": "Pawtucket",
    "placename_ascii": "Pawtucket",
    "placename_en": "Pawtucket",
    "placetag": "city",
    "latitude": 41.8789531,
    "longitude": -71.3821203,
    "state/province": "Rhode Island",
    "state/province-ascii": "Rhode Island",
    "country": "United States"
  },
  {
    "roadway": "I 95",
    "placename": "Rye",
    "placename_ascii": "Rye",
    "placename_en": "Rye",
    "placetag": "town",
    "latitude": 40.9821371,
    "longitude": -73.6840902,
    "state/province": "New York",
    "state/province-ascii": "New York",
    "country": "United States"
  },
  {
    "roadway": "I 95",
    "placename": "Darien",
    "placename_ascii": "Darien",
    "placename_en": "Darien",
    "placetag": "town",
    "latitude": 41.0787079,
    "longitude": -73.4692873,
    "state/province": "Connecticut",
    "state/province-ascii": "Connecticut",
    "country": "United States"
  },
  {
    "roadway": "I 95",
    "placename": "New Rochelle",
    "placename_ascii": "New Rochelle",
    "placename_en": "New Rochelle",
    "placetag": "city",
    "latitude": 40.9115386,
    "longitude": -73.7826363,
    "state/province": "New York",
    "state/province-ascii": "New York",
    "country": "United States"
  },
  {
    "roadway": "I 95",
    "placename": "Stratford",
    "placename_ascii": "Stratford",
    "placename_en": "Stratford",
    "placetag": "town",
    "latitude": 41.1923646,
    "longitude": -73.1304917,
    "state/province": "Connecticut",
    "state/province-ascii": "Connecticut",
    "country": "United States"
  },
  {
    "roadway": "I 95",
    "placename": "Hopkinton",
    "placename_ascii": "Hopkinton",
    "placename_en": "Hopkinton",
    "placetag": "town",
    "latitude": 41.4594366,
    "longitude": -71.7803046,
    "state/province": "Rhode Island",
    "state/province-ascii": "Rhode Island",
    "country": "United States"
  },
  {
    "roadway": "I 95",
    "placename": "Fort Lee",
    "placename_ascii": "Fort Lee",
    "placename_en": "Fort Lee",
    "placetag": "town",
    "latitude": 40.8509333,
    "longitude": -73.9701382,
    "state/province": "New Jersey",
    "state/province-ascii": "New Jersey",
    "country": "United States"
  },
  {
    "roadway": "I 95",
    "placename": "Stamford",
    "placename_ascii": "Stamford",
    "placename_en": "Stamford",
    "placetag": "city",
    "latitude": 41.0534302,
    "longitude": -73.5387341,
    "state/province": "Connecticut",
    "state/province-ascii": "Connecticut",
    "country": "United States"
  },
  {
    "roadway": "I 95",
    "placename": "Bridgeport",
    "placename_ascii": "Bridgeport",
    "placename_en": "Bridgeport",
    "placetag": "city",
    "latitude": 41.1792695,
    "longitude": -73.1887863,
    "state/province": "Connecticut",
    "state/province-ascii": "Connecticut",
    "country": "United States"
  },
  {
    "roadway": "I 95",
    "placename": "Richmond",
    "placename_ascii": "Richmond",
    "placename_en": "Richmond",
    "placetag": "city",
    "latitude": 37.5385087,
    "longitude": -77.43428,
    "state/province": "Virginia",
    "state/province-ascii": "Virginia",
    "country": "United States"
  }
]